{
"type": "FeatureCollection",
"name": "RSUP-POIs",
"crs": { "type": "name", "properties": { "name": "urn:ogc:def:crs:OGC:1.3:CRS84" } },
"features": [
{ "type": "Feature", "properties": { "id": 101, "name": "Ruang Penanganan 1", "type": "Room" }, "geometry": { "type": "Point", "coordinates": [ 124.807842721179568, 1.454608744457939 ] } },
{ "type": "Feature", "properties": { "id": 102, "name": "Ruang Penanganan 2", "type": "Room" }, "geometry": { "type": "Point", "coordinates": [ 124.807812126141002, 1.454624222458127 ] } },
{ "type": "Feature", "properties": { "id": 103, "name": "Ruang Penanganan 3", "type": "Room" }, "geometry": { "type": "Point", "coordinates": [ 124.807760193705391, 1.454650495026436 ] } },
{ "type": "Feature", "properties": { "id": 104, "name": "Ruang Penanganan 4", "type": "Room" }, "geometry": { "type": "Point", "coordinates": [ 124.807751935097585, 1.454654673048019 ] } },
{ "type": "Feature", "properties": { "id": 106, "name": "Tangga 2", "type": "Stairs" }, "geometry": { "type": "Point", "coordinates": [ 124.807676401300071, 1.454619577685398 ] } },
{ "type": "Feature", "properties": { "id": 105, "name": "Tangga 1", "type": "Stairs" }, "geometry": { "type": "Point", "coordinates": [ 124.807884644795223, 1.454600449063196 ] } },
{ "type": "Feature", "properties": { "id": 202, "name": "Ruang Tindakan 1", "type": "Room" }, "geometry": { "type": "Point", "coordinates": [ 124.807843816174781, 1.454605834693478 ] } },
{ "type": "Feature", "properties": { "id": 203, "name": "Ruang Tindakan 2", "type": "Room" }, "geometry": { "type": "Point", "coordinates": [ 124.807810263418432, 1.454622417068382 ] } },
{ "type": "Feature", "properties": { "id": 204, "name": "Ruang Tindakan 3", "type": "Room" }, "geometry": { "type": "Point", "coordinates": [ 124.80775401594579, 1.454650215579485 ] } },
{ "type": "Feature", "properties": { "id": 205, "name": "Ruang Tindakan 4", "type": "Room" }, "geometry": { "type": "Point", "coordinates": [ 124.80774758319194, 1.454653394761933 ] } },
{ "type": "Feature", "properties": { "id": 206, "name": "Ruang ESWL", "type": "Room" }, "geometry": { "type": "Point", "coordinates": [ 124.807855209804487, 1.4546259666421 ] } },
{ "type": "Feature", "properties": { "id": 207, "name": "Tangga 1", "type": "Stairs" }, "geometry": { "type": "Point", "coordinates": [ 124.807894682279226, 1.454618707977308 ] } },
{ "type": "Feature", "properties": { "id": 208, "name": "Tangga 2", "type": "Stairs" }, "geometry": { "type": "Point", "coordinates": [ 124.807667220504555, 1.454627783507206 ] } },
{ "type": "Feature", "properties": { "id": 209, "name": "Ruang Belakang", "type": "Room" }, "geometry": { "type": "Point", "coordinates": [ 124.807728458428301, 1.454689557807941 ] } },
{ "type": "Feature", "properties": { "id": 201, "name": "Wayfinding 1", "type": "Wayfinding" }, "geometry": { "type": "Point", "coordinates": [ 124.807887650050461, 1.454583969063812 ] } }
]
}
